[
  {
    "id": "ChIJQ5kbfPXuxkcR5_tPlK6Css8",
    "name": "Douwe Egberts",
    "address": "Visstraat 33, 's-Hertogenbosch",
    "lat": 51.6903984,
    "lng": 5.3003835
  },
  {
    "id": "ChIJgY943PXuxkcR4Dj5FQAZZSg",
    "name": "Café Jeronimus",
    "address": "Markt 8, 's-Hertogenbosch",
    "lat": 51.6888776,
    "lng": 5.303237099999999
  },
  {
    "id": "ChIJO0vXdvXuxkcRqmJDkYnJtnU",
    "name": "Café Bar le Duc",
    "address": "Korenbrugstraat 5, 's-Hertogenbosch",
    "lat": 51.6898133,
    "lng": 5.300311900000001
  },
  {
    "id": "ChIJA3b4dfXuxkcR8vopNbH7LtI",
    "name": "Café Reinders",
    "address": "Kruisstraat 29 C, 's-Hertogenbosch",
    "lat": 51.68964499999999,
    "lng": 5.3006877
  },
  {
    "id": "ChIJM8kGb1juxkcRkAubH2-Anhw",
    "name": "Cafe de Unie",
    "address": "Kardinaal van Rossumplein 15, 's-Hertogenbosch",
    "lat": 51.6911333,
    "lng": 5.3084447
  },
  {
    "id": "ChIJ0xQum_XuxkcR_S3KhMAojyk",
    "name": "Café Zomers & Zomers",
    "address": "Karrenstraat 22, 's-Hertogenbosch",
    "lat": 51.6897421,
    "lng": 5.301133699999999
  },
  {
    "id": "ChIJn3zrwvXuxkcRrceDrvsoZZg",
    "name": "Café De Boulevard",
    "address": "Pensmarkt 5, 's-Hertogenbosch",
    "lat": 51.6891502,
    "lng": 5.302917100000001
  },
  {
    "id": "ChIJ4cMl3PXuxkcRBEd5eaazjUs",
    "name": "Café Tijl Uilenspiegel",
    "address": "Markt 14, 's-Hertogenbosch",
    "lat": 51.68897969999999,
    "lng": 5.303397199999999
  },
  {
    "id": "ChIJ5fWUnfXuxkcR0u8l3a27Wio",
    "name": "Borrelcafé De Buurvrouw",
    "address": "Eerste Korenstraatje 16, 's-Hertogenbosch",
    "lat": 51.6897387,
    "lng": 5.3007914
  },
  {
    "id": "ChIJw01ToPjuxkcRCooEb19mL4s",
    "name": "Café Populair",
    "address": "Hinthamereinde 48, 's-Hertogenbosch",
    "lat": 51.6897756,
    "lng": 5.3156004
  },
  {
    "id": "ChIJC4rPdvXuxkcR5Pjvurvus5Q",
    "name": "M'n Tante",
    "address": "Korenbrugstraat 7-A, 's-Hertogenbosch",
    "lat": 51.6897743,
    "lng": 5.300270699999999
  },
  {
    "id": "ChIJgyOKdvXuxkcRN7posniH7_g",
    "name": "Tapperij Het Veulen",
    "address": "Korenbrugstraat 9-A, 's-Hertogenbosch",
    "lat": 51.68976129999999,
    "lng": 5.300144299999999
  },
  {
    "id": "ChIJtcEK3PXuxkcRxD4_OEUPba4",
    "name": "Café In De Kleine Werelt",
    "address": "Markt 10-12-16, 's-Hertogenbosch",
    "lat": 51.6888776,
    "lng": 5.3033094
  },
  {
    "id": "ChIJU3qZZfXuxkcRU3IEMGIA6wE",
    "name": "Proeflokaal 't paultje",
    "address": "Lepelstraat 31A, 's-Hertogenbosch",
    "lat": 51.6901121,
    "lng": 5.2995998
  },
  {
    "id": "ChIJUY2FmfXuxkcRbkusmwSEyRY",
    "name": "Ushiwawa (cocktails & dance)",
    "address": "Karrenstraat 10, 's-Hertogenbosch",
    "lat": 51.689574,
    "lng": 5.301257
  },
  {
    "id": "ChIJKa2I9FbuxkcRVfSD-IHEfqQ",
    "name": "Café 't Engeltje",
    "address": "Muntelbolwerk 31, 's-Hertogenbosch",
    "lat": 51.6928729,
    "lng": 5.3157877
  },
  {
    "id": "ChIJj__I3fXuxkcRHg1AhRm_sxM",
    "name": "Café de Paternoster",
    "address": "Markt 18, 's-Hertogenbosch",
    "lat": 51.68905969999999,
    "lng": 5.303297199999999
  },
  {
    "id": "ChIJhSv-KELuxkcRbe0rrCeFIfk",
    "name": "Café-Zaal Schutterswelvaren",
    "address": "Ketsheuvel 7, 's-Hertogenbosch",
    "lat": 51.7062074,
    "lng": 5.3032339
  },
  {
    "id": "ChIJg8NeRmLuxkcR7gOh6AoYOPs",
    "name": "Baskent",
    "address": "Copernicuslaan 302, 's-Hertogenbosch",
    "lat": 51.6929747,
    "lng": 5.2895764
  },
  {
    "id": "ChIJa3T55fXuxkcRLG_5ihjW8ck",
    "name": "Café P79",
    "address": "Markt 79, 's-Hertogenbosch",
    "lat": 51.6895651,
    "lng": 5.3030659
  },
  {
    "id": "ChIJ9z7neV_uxkcRTinzJ43nmJI",
    "name": "Kattenparadijs Mispoes!",
    "address": "Orthenstraat 31, 's-Hertogenbosch",
    "lat": 51.6912491,
    "lng": 5.301309199999999
  },
  {
    "id": "ChIJtbeykPXuxkcRGangQ343YtY",
    "name": "Carrousel",
    "address": "Karrenstraat 1, 's-Hertogenbosch",
    "lat": 51.6895841,
    "lng": 5.3015757
  },
  {
    "id": "ChIJd6PVgvXuxkcRVrpNXfH9AKg",
    "name": "Borrelcafé Jij & Ik",
    "address": "Karrenstraat 34, 's-Hertogenbosch",
    "lat": 51.6899921,
    "lng": 5.3007795
  },
  {
    "id": "ChIJMUNDh_XuxkcRQYdyVFP0LUs",
    "name": "Stadscafé d'n Burger",
    "address": "Orthenstraat 2-A, 's-Hertogenbosch",
    "lat": 51.69050799999999,
    "lng": 5.3013259
  },
  {
    "id": "ChIJ5cMRxvXuxkcRm8ma8hOIsrM",
    "name": "Werk aan de Winkel",
    "address": "Dode Nieuwstraat 32, 's-Hertogenbosch",
    "lat": 51.6889072,
    "lng": 5.301649200000001
  },
  {
    "id": "ChIJSxGagoruxkcRYjwuiAgDSXc",
    "name": "Lunch en dinercafé 't Gerucht",
    "address": "Stationsplein 87, 's-Hertogenbosch",
    "lat": 51.6907758,
    "lng": 5.295277599999999
  },
  {
    "id": "ChIJsRMRsWDuxkcR36GYJ_8preM",
    "name": "De Koekjesfabriek",
    "address": "Boschdijkstraat 45, 's-Hertogenbosch",
    "lat": 51.69559609999999,
    "lng": 5.297515999999999
  },
  {
    "id": "ChIJDZVHpYruxkcREFghBLMWEQA",
    "name": "Banketbakkerij Jan de Groot",
    "address": "Stationsweg 24, 's-Hertogenbosch",
    "lat": 51.6901618,
    "lng": 5.2966101
  },
  {
    "id": "ChIJWw6xQfbuxkcRPyqedyJFR3A",
    "name": "Lunchcafé Bagatelle",
    "address": "Hinthamerstraat 29, 's-Hertogenbosch",
    "lat": 51.6889062,
    "lng": 5.305594300000001
  },
  {
    "id": "ChIJ81vAB4ruxkcRnoidHIkfpNM",
    "name": "Grand café Perronn",
    "address": "Leonardo da Vinciplein 2, 's-Hertogenbosch",
    "lat": 51.6909626,
    "lng": 5.291814800000001
  },
  {
    "id": "ChIJN1DSnPXuxkcRL9xqy1ZIMVc",
    "name": "Grand Café Carras",
    "address": "Karrenstraat 28, 's-Hertogenbosch",
    "lat": 51.6899546,
    "lng": 5.300993499999999
  },
  {
    "id": "ChIJKXGtxlzuxkcRuLT7XOV1aA8",
    "name": "Metropole Restaurant Café",
    "address": "Orthenseweg 60, Hertogenbosch",
    "lat": 51.7001406,
    "lng": 5.3039106
  },
  {
    "id": "ChIJsVYznYruxkcRGn-allVHDw0",
    "name": "Restaurant Mell's Place",
    "address": "Stationsplein 89, 's-Hertogenbosch",
    "lat": 51.6908579,
    "lng": 5.2950911
  },
  {
    "id": "ChIJw00Ze_XuxkcRZQJTpRI1hQ4",
    "name": "Bakkerij Royal",
    "address": "Visstraat 44, 's-Hertogenbosch",
    "lat": 51.6901944,
    "lng": 5.3001
  },
  {
    "id": "ChIJUxGicfXuxkcR5Dc91Rj5mHc",
    "name": "Restaurant Brasserie Christoffel",
    "address": "Korenbrugstraat 11, 's-Hertogenbosch",
    "lat": 51.689811,
    "lng": 5.300070000000001
  },
  {
    "id": "ChIJyy0LzFPuxkcRL6fDLrPcpGk",
    "name": "Bloem",
    "address": "Prins Hendrikpark 1, 's-Hertogenbosch",
    "lat": 51.6974587,
    "lng": 5.3197593
  },
  {
    "id": "ChIJn3T7bvXuxkcR6Jiid8ZtbVk",
    "name": "Eetcafé De Nar",
    "address": "Lepelstraat 39, 's-Hertogenbosch",
    "lat": 51.6898394,
    "lng": 5.299577300000001
  },
  {
    "id": "ChIJOS_pdvXuxkcRfPZv1PRPAmM",
    "name": "Bottles & Bites",
    "address": "Korenbrugstraat 3, 's-Hertogenbosch",
    "lat": 51.689774,
    "lng": 5.30043
  },
  {
    "id": "ChIJuyim_13uxkcRGOnKGowFTYQ",
    "name": "Restaurant van Aken in het Werkwarenhuis",
    "address": "Tramkade 24, 's-Hertogenbosch",
    "lat": 51.69625730000001,
    "lng": 5.298977600000001
  },
  {
    "id": "ChIJ46ozDfXuxkcRQlgApzs7tP8",
    "name": "Lunch- & Dinercafe Van Puffelen",
    "address": "Molenstraat 4-6, 's-Hertogenbosch",
    "lat": 51.6893509,
    "lng": 5.299936499999998
  },
  {
    "id": "ChIJpztOB4ruxkcRg6TOfh1KANw",
    "name": "Eet en drink lokaal Mazzeltoff",
    "address": "Leeghwaterlaan 59A, 's-Hertogenbosch",
    "lat": 51.6909983,
    "lng": 5.2915565
  },
  {
    "id": "ChIJ1-ArZfXuxkcRPLuqH1_GvX8",
    "name": "Doppio Espresso Den Bosch",
    "address": "Visstraat 46, 's-Hertogenbosch",
    "lat": 51.690164,
    "lng": 5.299945999999999
  },
  {
    "id": "ChIJ0yY7nvXuxkcRGliur4fI-hI",
    "name": "Eetcafe Beekveld",
    "address": "Kruisstraat 25, 's-Hertogenbosch",
    "lat": 51.6895339,
    "lng": 5.300828399999999
  },
  {
    "id": "ChIJg3SgBmLuxkcR3xqkgYefi6M",
    "name": "Brasserie La Cour",
    "address": "Leeghwaterlaan 61, 's-Hertogenbosch",
    "lat": 51.6910715,
    "lng": 5.2912563
  },
  {
    "id": "ChIJRUV06PXuxkcRt5UQeOYwL2o",
    "name": "'t Opkikkertje",
    "address": "Markt 38, 's-Hertogenbosch",
    "lat": 51.6892611,
    "lng": 5.3030466
  },
  {
    "id": "ChIJC_zQtFjuxkcR2TMowJ20Bc4",
    "name": "La Place Den Bosch Arena",
    "address": "Arena 21-25, 's-Hertogenbosch",
    "lat": 51.69154139999999,
    "lng": 5.3041816
  },
  {
    "id": "ChIJMwuYgoruxkcRpuFo01GPjLA",
    "name": "Mell's Place V.O.F.",
    "address": "Stationsplein 89, 's-Hertogenbosch",
    "lat": 51.690858,
    "lng": 5.295090999999999
  },
  {
    "id": "ChIJj5rfq1juxkcR4U-1KHTLsWA",
    "name": "Mariapaviljoen",
    "address": "Burgemeester Loeffplein 70, 's-Hertogenbosch",
    "lat": 51.69005440000001,
    "lng": 5.3045506
  },
  {
    "id": "ChIJu1_bFWDuxkcRdnadgJi0gf4",
    "name": "Thornbridge 's-Hertogenbosch",
    "address": "Koninginnenlaan 28, 's-Hertogenbosch",
    "lat": 51.6918656,
    "lng": 5.2963328
  },
  {
    "id": "ChIJUS2zqV_uxkcRIHvfOFzck6M",
    "name": "Zaher",
    "address": "Orthenstraat 87, 's-Hertogenbosch",
    "lat": 51.69276,
    "lng": 5.301187
  },
  {
    "id": "ChIJ6faHd_XuxkcRlCnxztAaXic",
    "name": "Bellagio Den Bosch B.V.",
    "address": "Kruisstraat 37, 's-Hertogenbosch",
    "lat": 51.68993630000001,
    "lng": 5.3006609
  },
  {
    "id": "ChIJ0-FchvXuxkcRnlOWwSjpZLc",
    "name": "Bagels & Beans",
    "address": "Hooge Steenweg 34, 's-Hertogenbosch",
    "lat": 51.69036839999999,
    "lng": 5.3014844
  },
  {
    "id": "ChIJb-01SFTuxkcR6fmzaltILPA",
    "name": "Ons Kafee",
    "address": "Graafseweg 58, 's-Hertogenbosch",
    "lat": 51.6929598,
    "lng": 5.3193413
  },
  {
    "id": "ChIJhyMR-l3uxkcRAhpsK5fYxt8",
    "name": "Koudijs Kafé",
    "address": "Tramkade 26, 's-Hertogenbosch",
    "lat": 51.696297,
    "lng": 5.299842
  },
  {
    "id": "ChIJgSyvt2DuxkcRRgwl3a7qVSY",
    "name": "Willem Twee poppodium",
    "address": "Boschveldweg 471, 's-Hertogenbosch",
    "lat": 51.6955805,
    "lng": 5.2969444
  },
  {
    "id": "ChIJs7VYD_buxkcRiA64q3dsMPU",
    "name": "Oeteldonksche Club van 1882",
    "address": "Zusters van Orthenpoort 20, 's-Hertogenbosch",
    "lat": 51.6893499,
    "lng": 5.3104237
  },
  {
    "id": "ChIJHb86v_fuxkcR69YdywOTe1A",
    "name": "Muzerije",
    "address": "Hinthamerstraat 74, 's-Hertogenbosch",
    "lat": 51.6888452,
    "lng": 5.3083855
  },
  {
    "id": "ChIJdZN6FvbuxkcRMkmE3rexEWk",
    "name": "Stichting De Knillispoort",
    "address": "Korte Waterstraat 15, 's-Hertogenbosch",
    "lat": 51.68947230000001,
    "lng": 5.3054053
  },
  {
    "id": "ChIJsRMRsWDuxkcRxoUBg-ob21M",
    "name": "Verkadefabriek",
    "address": "Boschdijkstraat 45, 's-Hertogenbosch",
    "lat": 51.6957685,
    "lng": 5.297725
  },
  {
    "id": "ChIJuwOjOmDuxkcRWkgDTLir66U",
    "name": "Hotel Terminus",
    "address": "Boschveldweg 15, 's-Hertogenbosch",
    "lat": 51.6912768,
    "lng": 5.2957318
  },
  {
    "id": "ChIJqUiFm_XuxkcR8SUv9fuJ0i8",
    "name": "DoeDenBosch.nl",
    "address": "Karrenstraat 22, 's-Hertogenbosch",
    "lat": 51.689728,
    "lng": 5.301097
  },
  {
    "id": "ChIJO0vXdvXuxkcR3OTe88XK3N4",
    "name": "Bossche Darts Competitie",
    "address": "Korenbrugstraat 7, 's-Hertogenbosch",
    "lat": 51.6898133,
    "lng": 5.300311900000001
  },
  {
    "id": "ChIJQ7Z4iInuxkcRqXX8kIgC7vg",
    "name": "Infocentrum Paleiskwartier",
    "address": "Hugo de Grootlaan 82, 's-Hertogenbosch",
    "lat": 51.6891195,
    "lng": 5.290597
  },
  {
    "id": "ChIJ0WzZNFzuxkcRZ_vIDMF1mDE",
    "name": "Oknog Oknog",
    "address": "Werfpad 3C, 's-Hertogenbosch",
    "lat": 51.69714010000001,
    "lng": 5.302169999999999
  },
  {
    "id": "ChIJMwRwvULuxkcRqZVr_KF6468",
    "name": "WeenerXL",
    "address": "Van Herpensweide 1, 's-Hertogenbosch",
    "lat": 51.7027535,
    "lng": 5.3006627
  },
  {
    "id": "ChIJ2aFItoruxkcRlJiRnBfXFEE",
    "name": "Studio Boot",
    "address": "Van Tuldenstraat 2, 's-Hertogenbosch",
    "lat": 51.6933799,
    "lng": 5.301927
  }
]